[
    {
        "name": "Port Coquitlam",
        "latitude": 49.2839,
        "longitude": -122.7933,
        "date": 1743147314,
        "weather": "Clouds",
        "weather_description": "overcast clouds",
        "temp": 9.28,
        "visibility": 10000,
        "clouds": 100,
        "rain": 0,
        "snow": 0
    },
    {
        "name": "Hope",
        "latitude": 49.3797,
        "longitude": -121.4414,
        "date": 1743147314,
        "weather": "Rain",
        "weather_description": "moderate rain",
        "temp": 7.83,
        "visibility": 10000,
        "clouds": 100,
        "rain": 1.15,
        "snow": 0
    },
    {
        "name": "Port Coquitlam",
        "latitude": 49.2617,
        "longitude": -122.7803,
        "date": 1743147314,
        "weather": "Clouds",
        "weather_description": "overcast clouds",
        "temp": 8.63,
        "visibility": 10000,
        "clouds": 100,
        "rain": 0,
        "snow": 0
    },
    {
        "name": "Revelstoke",
        "latitude": 50.9986,
        "longitude": -118.1956,
        "date": 1743147314,
        "weather": "Clouds",
        "weather_description": "overcast clouds",
        "temp": 4.89,
        "visibility": 10000,
        "clouds": 100,
        "rain": 0,
        "snow": 0
    },
    {
        "name": "Chilliwack",
        "latitude": 49.1575,
        "longitude": -121.9506,
        "date": 1743147314,
        "weather": "Clouds",
        "weather_description": "overcast clouds",
        "temp": 8.3,
        "visibility": 10000,
        "clouds": 100,
        "rain": 0,
        "snow": 0
    },
    {
        "name": "Creston",
        "latitude": 49.0972,
        "longitude": -116.5131,
        "date": 1743147314,
        "weather": "Clouds",
        "weather_description": "broken clouds",
        "temp": 5.13,
        "visibility": 10000,
        "clouds": 77,
        "rain": 0,
        "snow": 0
    },
    {
        "name": "Hilliers",
        "latitude": 49.2997,
        "longitude": -124.4178,
        "date": 1743147315,
        "weather": "Clouds",
        "weather_description": "overcast clouds",
        "temp": 8.15,
        "visibility": 2859,
        "clouds": 100,
        "rain": 0,
        "snow": 0
    },
    {
        "name": "Fernie",
        "latitude": 49.7331,
        "longitude": -114.8856,
        "date": 1743147315,
        "weather": "Clouds",
        "weather_description": "overcast clouds",
        "temp": 0.73,
        "visibility": 3890,
        "clouds": 98,
        "rain": 0,
        "snow": 0
    },
    {
        "name": "Halfmoon Bay",
        "latitude": 49.5164,
        "longitude": -123.9178,
        "date": 1743147315,
        "weather": "Clouds",
        "weather_description": "overcast clouds",
        "temp": 8.8,
        "visibility": 10000,
        "clouds": 100,
        "rain": 0,
        "snow": 0
    },
    {
        "name": "Keremeos",
        "latitude": 49.2044,
        "longitude": -119.8294,
        "date": 1743147315,
        "weather": "Clouds",
        "weather_description": "overcast clouds",
        "temp": 6.07,
        "visibility": 90,
        "clouds": 100,
        "rain": 0,
        "snow": 0
    },
    {
        "name": "Port Moody",
        "latitude": 49.2819,
        "longitude": -122.8292,
        "date": 1743147315,
        "weather": "Clouds",
        "weather_description": "overcast clouds",
        "temp": 9.4,
        "visibility": 10000,
        "clouds": 100,
        "rain": 0,
        "snow": 0
    },
    {
        "name": "Nanaimo",
        "latitude": 49.2503,
        "longitude": -124.0742,
        "date": 1743147315,
        "weather": "Clouds",
        "weather_description": "overcast clouds",
        "temp": 9.49,
        "visibility": 10000,
        "clouds": 100,
        "rain": 0,
        "snow": 0
    },
    {
        "name": "Terrace",
        "latitude": 54.5161,
        "longitude": -128.5994,
        "date": 1743147315,
        "weather": "Clouds",
        "weather_description": "overcast clouds",
        "temp": 7.95,
        "visibility": 10000,
        "clouds": 100,
        "rain": 0,
        "snow": 0
    },
    {
        "name": "Grand Forks",
        "latitude": 49.0308,
        "longitude": -118.4392,
        "date": 1743147315,
        "weather": "Clouds",
        "weather_description": "overcast clouds",
        "temp": 5.06,
        "visibility": 10000,
        "clouds": 100,
        "rain": 0,
        "snow": 0
    },
    {
        "name": "Central Saanich",
        "latitude": 48.5942,
        "longitude": -123.4206,
        "date": 1743147315,
        "weather": "Clouds",
        "weather_description": "overcast clouds",
        "temp": 8.52,
        "visibility": 10000,
        "clouds": 100,
        "rain": 0,
        "snow": 0
    },
    {
        "name": "Kelowna",
        "latitude": 49.8878,
        "longitude": -119.4956,
        "date": 1743147315,
        "weather": "Clouds",
        "weather_description": "overcast clouds",
        "temp": 6.62,
        "visibility": 10000,
        "clouds": 100,
        "rain": 0,
        "snow": 0
    },
    {
        "name": "Cobble Hill",
        "latitude": 48.6519,
        "longitude": -123.5589,
        "date": 1743147315,
        "weather": "Clouds",
        "weather_description": "overcast clouds",
        "temp": 8.18,
        "visibility": 10000,
        "clouds": 100,
        "rain": 0,
        "snow": 0
    },
    {
        "name": "Port Alberni",
        "latitude": 49.2342,
        "longitude": -124.8056,
        "date": 1743147315,
        "weather": "Clouds",
        "weather_description": "overcast clouds",
        "temp": 8.85,
        "visibility": 3052,
        "clouds": 100,
        "rain": 0,
        "snow": 0
    },
    {
        "name": "Maplewood",
        "latitude": 48.4564,
        "longitude": -123.3731,
        "date": 1743147315,
        "weather": "Clouds",
        "weather_description": "overcast clouds",
        "temp": 8.74,
        "visibility": 10000,
        "clouds": 100,
        "rain": 0,
        "snow": 0
    },
    {
        "name": "Cranbrook",
        "latitude": 49.5078,
        "longitude": -115.7467,
        "date": 1743147316,
        "weather": "Clouds",
        "weather_description": "broken clouds",
        "temp": 2.42,
        "visibility": 10000,
        "clouds": 75,
        "rain": 0,
        "snow": 0
    },
    {
        "name": "Parksville",
        "latitude": 49.3178,
        "longitude": -124.3114,
        "date": 1743147316,
        "weather": "Clouds",
        "weather_description": "overcast clouds",
        "temp": 8.67,
        "visibility": 4542,
        "clouds": 100,
        "rain": 0,
        "snow": 0
    },
    {
        "name": "Langley",
        "latitude": 49.1022,
        "longitude": -122.6581,
        "date": 1743147316,
        "weather": "Clouds",
        "weather_description": "overcast clouds",
        "temp": 8.99,
        "visibility": 10000,
        "clouds": 100,
        "rain": 0,
        "snow": 0
    },
    {
        "name": "Powell River",
        "latitude": 49.8353,
        "longitude": -124.5242,
        "date": 1743147316,
        "weather": "Clouds",
        "weather_description": "overcast clouds",
        "temp": 8.14,
        "visibility": 10000,
        "clouds": 100,
        "rain": 0,
        "snow": 0
    },
    {
        "name": "Duncan",
        "latitude": 48.7783,
        "longitude": -123.7081,
        "date": 1743147316,
        "weather": "Clouds",
        "weather_description": "overcast clouds",
        "temp": 8.58,
        "visibility": 10000,
        "clouds": 100,
        "rain": 0,
        "snow": 0
    },
    {
        "name": "Darrell Bay",
        "latitude": 49.6978,
        "longitude": -123.1556,
        "date": 1743147316,
        "weather": "Rain",
        "weather_description": "moderate rain",
        "temp": 9.56,
        "visibility": 3040,
        "clouds": 100,
        "rain": 1.78,
        "snow": 0
    },
    {
        "name": "Sechelt",
        "latitude": 49.4714,
        "longitude": -123.7631,
        "date": 1743147316,
        "weather": "Clouds",
        "weather_description": "overcast clouds",
        "temp": 8.55,
        "visibility": 10000,
        "clouds": 100,
        "rain": 0,
        "snow": 0
    },
    {
        "name": "Houston",
        "latitude": 54.3981,
        "longitude": -126.6481,
        "date": 1743147316,
        "weather": "Snow",
        "weather_description": "light snow",
        "temp": -1.25,
        "visibility": 450,
        "clouds": 100,
        "rain": 0,
        "snow": 0.2
    },
    {
        "name": "White Rock",
        "latitude": 49.0233,
        "longitude": -122.7981,
        "date": 1743147316,
        "weather": "Clouds",
        "weather_description": "overcast clouds",
        "temp": 8.39,
        "visibility": 10000,
        "clouds": 100,
        "rain": 0,
        "snow": 0
    },
    {
        "name": "Maple Ridge",
        "latitude": 49.2197,
        "longitude": -122.5989,
        "date": 1743147316,
        "weather": "Clouds",
        "weather_description": "overcast clouds",
        "temp": 9.07,
        "visibility": 10000,
        "clouds": 100,
        "rain": 0,
        "snow": 0
    },
    {
        "name": "Salmo",
        "latitude": 49.1931,
        "longitude": -117.2783,
        "date": 1743147316,
        "weather": "Clouds",
        "weather_description": "overcast clouds",
        "temp": 2.52,
        "visibility": 10000,
        "clouds": 100,
        "rain": 0,
        "snow": 0
    },
    {
        "name": "Merritt",
        "latitude": 50.1122,
        "longitude": -120.7881,
        "date": 1743147316,
        "weather": "Clouds",
        "weather_description": "overcast clouds",
        "temp": 4.3,
        "visibility": 10000,
        "clouds": 100,
        "rain": 0,
        "snow": 0
    },
    {
        "name": "North Saanich",
        "latitude": 48.6561,
        "longitude": -123.4319,
        "date": 1743147316,
        "weather": "Clouds",
        "weather_description": "overcast clouds",
        "temp": 8.46,
        "visibility": 10000,
        "clouds": 100,
        "rain": 0,
        "snow": 0
    },
    {
        "name": "Dawson Creek",
        "latitude": 55.7603,
        "longitude": -120.2356,
        "date": 1743147317,
        "weather": "Snow",
        "weather_description": "light snow",
        "temp": -5.99,
        "visibility": 10000,
        "clouds": 75,
        "rain": 0,
        "snow": 0
    },
    {
        "name": "Prince George",
        "latitude": 53.9128,
        "longitude": -122.7453,
        "date": 1743147317,
        "weather": "Snow",
        "weather_description": "snow",
        "temp": -2.44,
        "visibility": 4828,
        "clouds": 75,
        "rain": 0,
        "snow": 0.51
    },
    {
        "name": "Merville",
        "latitude": 49.8331,
        "longitude": -125.1344,
        "date": 1743147317,
        "weather": "Rain",
        "weather_description": "moderate rain",
        "temp": 7.46,
        "visibility": 10000,
        "clouds": 100,
        "rain": 1.33,
        "snow": 0
    },
    {
        "name": "Castlegar",
        "latitude": 49.3242,
        "longitude": -117.6667,
        "date": 1743147317,
        "weather": "Clouds",
        "weather_description": "overcast clouds",
        "temp": 5.14,
        "visibility": 10000,
        "clouds": 100,
        "rain": 0,
        "snow": 0
    },
    {
        "name": "Williams Lake",
        "latitude": 52.1289,
        "longitude": -122.14,
        "date": 1743147317,
        "weather": "Mist",
        "weather_description": "mist",
        "temp": 2.25,
        "visibility": 9656,
        "clouds": 100,
        "rain": 0,
        "snow": 0
    },
    {
        "name": "Esquimalt",
        "latitude": 48.4294,
        "longitude": -123.4142,
        "date": 1743147317,
        "weather": "Clouds",
        "weather_description": "overcast clouds",
        "temp": 8.57,
        "visibility": 10000,
        "clouds": 100,
        "rain": 0,
        "snow": 0
    },
    {
        "name": "Surrey",
        "latitude": 49.1114,
        "longitude": -122.8275,
        "date": 1743147317,
        "weather": "Clouds",
        "weather_description": "overcast clouds",
        "temp": 8.8,
        "visibility": 10000,
        "clouds": 100,
        "rain": 0,
        "snow": 0
    },
    {
        "name": "Coldstream",
        "latitude": 50.2236,
        "longitude": -119.23,
        "date": 1743147317,
        "weather": "Clouds",
        "weather_description": "broken clouds",
        "temp": 6.12,
        "visibility": 10000,
        "clouds": 83,
        "rain": 0,
        "snow": 0
    },
    {
        "name": "Fort St. John",
        "latitude": 56.2522,
        "longitude": -120.8467,
        "date": 1743147317,
        "weather": "Clouds",
        "weather_description": "overcast clouds",
        "temp": -5.06,
        "visibility": 10000,
        "clouds": 100,
        "rain": 0,
        "snow": 0
    },
    {
        "name": "New Westminster",
        "latitude": 49.2064,
        "longitude": -122.9106,
        "date": 1743147317,
        "weather": "Clouds",
        "weather_description": "overcast clouds",
        "temp": 8.82,
        "visibility": 10000,
        "clouds": 100,
        "rain": 0,
        "snow": 0
    },
    {
        "name": "Mission",
        "latitude": 49.1589,
        "longitude": -122.2839,
        "date": 1743147317,
        "weather": "Clouds",
        "weather_description": "overcast clouds",
        "temp": 7.65,
        "visibility": 10000,
        "clouds": 100,
        "rain": 0,
        "snow": 0
    },
    {
        "name": "Nanaimo",
        "latitude": 49.1636,
        "longitude": -123.9381,
        "date": 1743147317,
        "weather": "Clouds",
        "weather_description": "overcast clouds",
        "temp": 8.33,
        "visibility": 10000,
        "clouds": 100,
        "rain": 0,
        "snow": 0
    },
    {
        "name": "Salt Spring Island",
        "latitude": 48.8246,
        "longitude": -123.4974,
        "date": 1743147317,
        "weather": "Clouds",
        "weather_description": "overcast clouds",
        "temp": 6.94,
        "visibility": 10000,
        "clouds": 100,
        "rain": 0,
        "snow": 0
    },
    {
        "name": "Lake Country",
        "latitude": 50.03,
        "longitude": -119.4025,
        "date": 1743147318,
        "weather": "Clouds",
        "weather_description": "overcast clouds",
        "temp": 5.39,
        "visibility": 10000,
        "clouds": 100,
        "rain": 0,
        "snow": 0
    },
    {
        "name": "Summerland",
        "latitude": 49.6019,
        "longitude": -119.6817,
        "date": 1743147318,
        "weather": "Clouds",
        "weather_description": "broken clouds",
        "temp": 5.16,
        "visibility": 10000,
        "clouds": 75,
        "rain": 0,
        "snow": 0
    },
    {
        "name": "Hollyburn",
        "latitude": 49.3308,
        "longitude": -123.1594,
        "date": 1743147318,
        "weather": "Rain",
        "weather_description": "moderate rain",
        "temp": 7.84,
        "visibility": 10000,
        "clouds": 100,
        "rain": 1.15,
        "snow": 0
    },
    {
        "name": "Burnaby",
        "latitude": 49.2425,
        "longitude": -122.9728,
        "date": 1743147318,
        "weather": "Clouds",
        "weather_description": "overcast clouds",
        "temp": 9.53,
        "visibility": 10000,
        "clouds": 100,
        "rain": 0,
        "snow": 0
    },
    {
        "name": "Kamloops",
        "latitude": 50.6756,
        "longitude": -120.3392,
        "date": 1743147318,
        "weather": "Clouds",
        "weather_description": "few clouds",
        "temp": 5.2,
        "visibility": 10000,
        "clouds": 20,
        "rain": 0,
        "snow": 0
    },
    {
        "name": "Esquimalt",
        "latitude": 48.4517,
        "longitude": -123.4342,
        "date": 1743147318,
        "weather": "Clouds",
        "weather_description": "overcast clouds",
        "temp": 8.76,
        "visibility": 10000,
        "clouds": 100,
        "rain": 0,
        "snow": 0
    },
    {
        "name": "Sorrento",
        "latitude": 50.8997,
        "longitude": -119.5344,
        "date": 1743147318,
        "weather": "Clouds",
        "weather_description": "overcast clouds",
        "temp": 5.62,
        "visibility": 10000,
        "clouds": 97,
        "rain": 0,
        "snow": 0
    },
    {
        "name": "Vancouver",
        "latitude": 49.2656,
        "longitude": -123.2356,
        "date": 1743147318,
        "weather": "Clouds",
        "weather_description": "overcast clouds",
        "temp": 9.8,
        "visibility": 10000,
        "clouds": 100,
        "rain": 0,
        "snow": 0
    },
    {
        "name": "Victoria",
        "latitude": 48.4281,
        "longitude": -123.3644,
        "date": 1743147318,
        "weather": "Clouds",
        "weather_description": "overcast clouds",
        "temp": 9.49,
        "visibility": 10000,
        "clouds": 100,
        "rain": 0,
        "snow": 0
    },
    {
        "name": "Fruitvale",
        "latitude": 49.0786,
        "longitude": -117.5942,
        "date": 1743147318,
        "weather": "Clouds",
        "weather_description": "overcast clouds",
        "temp": 3.04,
        "visibility": 10000,
        "clouds": 100,
        "rain": 0,
        "snow": 0
    },
    {
        "name": "Enderby",
        "latitude": 50.5503,
        "longitude": -119.1392,
        "date": 1743147318,
        "weather": "Clouds",
        "weather_description": "broken clouds",
        "temp": 5.12,
        "visibility": 10000,
        "clouds": 82,
        "rain": 0,
        "snow": 0
    },
    {
        "name": "Golden",
        "latitude": 51.2975,
        "longitude": -116.9644,
        "date": 1743147318,
        "weather": "Snow",
        "weather_description": "light snow",
        "temp": 0.31,
        "visibility": {},
        "clouds": 95,
        "rain": 0,
        "snow": 0.18
    },
    {
        "name": "West Kelowna",
        "latitude": 49.8603,
        "longitude": -119.6082,
        "date": 1743147318,
        "weather": "Clouds",
        "weather_description": "overcast clouds",
        "temp": 1.57,
        "visibility": 10000,
        "clouds": 100,
        "rain": 0,
        "snow": 0
    },
    {
        "name": "Abbotsford",
        "latitude": 49.0519,
        "longitude": -122.3292,
        "date": 1743147318,
        "weather": "Clouds",
        "weather_description": "overcast clouds",
        "temp": 8.43,
        "visibility": 10000,
        "clouds": 100,
        "rain": 0,
        "snow": 0
    },
    {
        "name": "Chemainus",
        "latitude": 48.9164,
        "longitude": -123.7178,
        "date": 1743147319,
        "weather": "Clouds",
        "weather_description": "overcast clouds",
        "temp": 8.67,
        "visibility": 10000,
        "clouds": 100,
        "rain": 0,
        "snow": 0
    },
    {
        "name": "Qualicum Beach",
        "latitude": 49.3478,
        "longitude": -124.4439,
        "date": 1743147319,
        "weather": "Clouds",
        "weather_description": "overcast clouds",
        "temp": 8.43,
        "visibility": 8150,
        "clouds": 100,
        "rain": 0,
        "snow": 0
    },
    {
        "name": "Sooke",
        "latitude": 48.3825,
        "longitude": -123.7317,
        "date": 1743147319,
        "weather": "Clouds",
        "weather_description": "overcast clouds",
        "temp": 8.24,
        "visibility": 10000,
        "clouds": 100,
        "rain": 0,
        "snow": 0
    },
    {
        "name": "Agassiz",
        "latitude": 49.2331,
        "longitude": -121.7678,
        "date": 1743147319,
        "weather": "Rain",
        "weather_description": "light rain",
        "temp": 8.44,
        "visibility": 10000,
        "clouds": 100,
        "rain": 0.12,
        "snow": 0
    },
    {
        "name": "Lake Cowichan",
        "latitude": 48.8256,
        "longitude": -124.0564,
        "date": 1743147319,
        "weather": "Clouds",
        "weather_description": "overcast clouds",
        "temp": 6.82,
        "visibility": 10000,
        "clouds": 100,
        "rain": 0,
        "snow": 0
    },
    {
        "name": "Trail",
        "latitude": 49.0942,
        "longitude": -117.7092,
        "date": 1743147319,
        "weather": "Clouds",
        "weather_description": "overcast clouds",
        "temp": 5.87,
        "visibility": 10000,
        "clouds": 99,
        "rain": 0,
        "snow": 0
    },
    {
        "name": "Pemberton",
        "latitude": 50.3203,
        "longitude": -122.8078,
        "date": 1743147319,
        "weather": "Clouds",
        "weather_description": "overcast clouds",
        "temp": 7.54,
        "visibility": 10000,
        "clouds": 100,
        "rain": 0,
        "snow": 0
    },
    {
        "name": "Vernon",
        "latitude": 50.2656,
        "longitude": -119.2717,
        "date": 1743147319,
        "weather": "Clouds",
        "weather_description": "overcast clouds",
        "temp": 6.2,
        "visibility": 10000,
        "clouds": 86,
        "rain": 0,
        "snow": 0
    },
    {
        "name": "Cobble Hill",
        "latitude": 48.6831,
        "longitude": -123.6011,
        "date": 1743147319,
        "weather": "Clouds",
        "weather_description": "overcast clouds",
        "temp": 7.08,
        "visibility": 10000,
        "clouds": 100,
        "rain": 0,
        "snow": 0
    },
    {
        "name": "Ladysmith",
        "latitude": 48.9931,
        "longitude": -123.8156,
        "date": 1743147319,
        "weather": "Clouds",
        "weather_description": "overcast clouds",
        "temp": 8.29,
        "visibility": 10000,
        "clouds": 100,
        "rain": 0,
        "snow": 0
    },
    {
        "name": "Parksville",
        "latitude": 49.2664,
        "longitude": -124.2011,
        "date": 1743147319,
        "weather": "Clouds",
        "weather_description": "overcast clouds",
        "temp": 8.19,
        "visibility": 3708,
        "clouds": 100,
        "rain": 0,
        "snow": 0
    },
    {
        "name": "Penticton",
        "latitude": 49.5006,
        "longitude": -119.5939,
        "date": 1743147319,
        "weather": "Clouds",
        "weather_description": "broken clouds",
        "temp": 7.14,
        "visibility": 10000,
        "clouds": 75,
        "rain": 0,
        "snow": 0
    },
    {
        "name": "Campbell River",
        "latitude": 50.0228,
        "longitude": -125.2433,
        "date": 1743147319,
        "weather": "Rain",
        "weather_description": "light rain",
        "temp": 7.94,
        "visibility": 10000,
        "clouds": 100,
        "rain": 0.75,
        "snow": 0
    },
    {
        "name": "Colwood",
        "latitude": 48.4233,
        "longitude": -123.4931,
        "date": 1743147320,
        "weather": "Clouds",
        "weather_description": "overcast clouds",
        "temp": 8.38,
        "visibility": 10000,
        "clouds": 100,
        "rain": 0,
        "snow": 0
    },
    {
        "name": "Quesnel",
        "latitude": 52.9794,
        "longitude": -122.4933,
        "date": 1743147320,
        "weather": "Snow",
        "weather_description": "light snow",
        "temp": 0.98,
        "visibility": 9656,
        "clouds": 100,
        "rain": 0,
        "snow": 0.23
    },
    {
        "name": "Pitt Meadows",
        "latitude": 49.2203,
        "longitude": -122.6903,
        "date": 1743147320,
        "weather": "Rain",
        "weather_description": "moderate rain",
        "temp": 9.21,
        "visibility": 10000,
        "clouds": 100,
        "rain": 1.15,
        "snow": 0
    },
    {
        "name": "Courtenay",
        "latitude": 49.6892,
        "longitude": -124.9956,
        "date": 1743147320,
        "weather": "Rain",
        "weather_description": "light intensity shower rain",
        "temp": 7.53,
        "visibility": 10000,
        "clouds": 100,
        "rain": 1,
        "snow": 0
    },
    {
        "name": "Ladner",
        "latitude": 49.0844,
        "longitude": -123.0583,
        "date": 1743147320,
        "weather": "Clouds",
        "weather_description": "overcast clouds",
        "temp": 9.3,
        "visibility": 10000,
        "clouds": 100,
        "rain": 0,
        "snow": 0
    },
    {
        "name": "Oak Bay",
        "latitude": 48.4256,
        "longitude": -123.3181,
        "date": 1743147320,
        "weather": "Clouds",
        "weather_description": "overcast clouds",
        "temp": 8.65,
        "visibility": 10000,
        "clouds": 100,
        "rain": 0,
        "snow": 0
    },
    {
        "name": "Cobble Hill",
        "latitude": 48.6575,
        "longitude": -123.6275,
        "date": 1743147320,
        "weather": "Clouds",
        "weather_description": "overcast clouds",
        "temp": 7.7,
        "visibility": 10000,
        "clouds": 100,
        "rain": 0,
        "snow": 0
    },
    {
        "name": "Richmond",
        "latitude": 49.1631,
        "longitude": -123.1631,
        "date": 1743147320,
        "weather": "Rain",
        "weather_description": "moderate rain",
        "temp": 9.51,
        "visibility": 10000,
        "clouds": 100,
        "rain": 1.54,
        "snow": 0
    },
    {
        "name": "Whistler",
        "latitude": 50.1169,
        "longitude": -122.9544,
        "date": 1743147320,
        "weather": "Clouds",
        "weather_description": "overcast clouds",
        "temp": 4.38,
        "visibility": {},
        "clouds": 100,
        "rain": 0,
        "snow": 0
    },
    {
        "name": "Elkford",
        "latitude": 50.0242,
        "longitude": -114.9217,
        "date": 1743147320,
        "weather": "Snow",
        "weather_description": "light snow",
        "temp": -1.74,
        "visibility": 910,
        "clouds": 100,
        "rain": 0,
        "snow": 0.19
    },
    {
        "name": "Gibsons",
        "latitude": 49.4,
        "longitude": -123.5089,
        "date": 1743147320,
        "weather": "Clouds",
        "weather_description": "overcast clouds",
        "temp": 8.54,
        "visibility": 10000,
        "clouds": 100,
        "rain": 0,
        "snow": 0
    },
    {
        "name": "Comox",
        "latitude": 49.6725,
        "longitude": -124.9278,
        "date": 1743147320,
        "weather": "Clouds",
        "weather_description": "overcast clouds",
        "temp": 7.34,
        "visibility": 10000,
        "clouds": 100,
        "rain": 0,
        "snow": 0
    },
    {
        "name": "Salmon Arm",
        "latitude": 50.7011,
        "longitude": -119.2781,
        "date": 1743147321,
        "weather": "Clouds",
        "weather_description": "overcast clouds",
        "temp": 6.09,
        "visibility": 10000,
        "clouds": 86,
        "rain": 0,
        "snow": 0
    },
    {
        "name": "Vancouver",
        "latitude": 49.2608,
        "longitude": -123.1139,
        "date": 1743147321,
        "weather": "Clouds",
        "weather_description": "overcast clouds",
        "temp": 9.58,
        "visibility": 10000,
        "clouds": 100,
        "rain": 0,
        "snow": 0
    },
    {
        "name": "Langford",
        "latitude": 48.4494,
        "longitude": -123.5042,
        "date": 1743147321,
        "weather": "Clouds",
        "weather_description": "overcast clouds",
        "temp": 8.15,
        "visibility": 10000,
        "clouds": 100,
        "rain": 0,
        "snow": 0
    },
    {
        "name": "North Vancouver",
        "latitude": 49.3203,
        "longitude": -123.0739,
        "date": 1743147321,
        "weather": "Rain",
        "weather_description": "moderate rain",
        "temp": 9.38,
        "visibility": 10000,
        "clouds": 100,
        "rain": 1.15,
        "snow": 0
    },
    {
        "name": "Oliver",
        "latitude": 49.1822,
        "longitude": -119.5506,
        "date": 1743147321,
        "weather": "Rain",
        "weather_description": "moderate rain",
        "temp": 6.51,
        "visibility": 10000,
        "clouds": 100,
        "rain": 1.15,
        "snow": 0
    },
    {
        "name": "Peachland",
        "latitude": 49.7736,
        "longitude": -119.7364,
        "date": 1743147321,
        "weather": "Clouds",
        "weather_description": "overcast clouds",
        "temp": 4.78,
        "visibility": 10000,
        "clouds": 100,
        "rain": 0,
        "snow": 0
    },
    {
        "name": "Cowichan Bay",
        "latitude": 48.7331,
        "longitude": -123.6178,
        "date": 1743147321,
        "weather": "Clouds",
        "weather_description": "overcast clouds",
        "temp": 9.55,
        "visibility": 10000,
        "clouds": 100,
        "rain": 0,
        "snow": 0
    },
    {
        "name": "Fernie",
        "latitude": 49.5039,
        "longitude": -115.0628,
        "date": 1743147321,
        "weather": "Clouds",
        "weather_description": "scattered clouds",
        "temp": 1.6,
        "visibility": 10000,
        "clouds": 50,
        "rain": 0,
        "snow": 0
    },
    {
        "name": "Tappen",
        "latitude": 50.7831,
        "longitude": -119.3344,
        "date": 1743147321,
        "weather": "Clouds",
        "weather_description": "overcast clouds",
        "temp": 5.37,
        "visibility": 8275,
        "clouds": 90,
        "rain": 0,
        "snow": 0
    },
    {
        "name": "Chetwynd",
        "latitude": 55.6956,
        "longitude": -121.6381,
        "date": 1743147321,
        "weather": "Snow",
        "weather_description": "light snow",
        "temp": -6.48,
        "visibility": 150,
        "clouds": 100,
        "rain": 0,
        "snow": 0.18
    },
    {
        "name": "Chilliwack",
        "latitude": 49.1831,
        "longitude": -122.0678,
        "date": 1743147321,
        "weather": "Clouds",
        "weather_description": "overcast clouds",
        "temp": 4.96,
        "visibility": 10000,
        "clouds": 100,
        "rain": 0,
        "snow": 0
    },
    {
        "name": "Sidney",
        "latitude": 48.6503,
        "longitude": -123.3981,
        "date": 1743147321,
        "weather": "Clouds",
        "weather_description": "overcast clouds",
        "temp": 8.52,
        "visibility": 10000,
        "clouds": 100,
        "rain": 0,
        "snow": 0
    },
    {
        "name": "Nelson",
        "latitude": 49.4931,
        "longitude": -117.2956,
        "date": 1743147322,
        "weather": "Clouds",
        "weather_description": "overcast clouds",
        "temp": 2.41,
        "visibility": 10000,
        "clouds": 93,
        "rain": 0,
        "snow": 0
    },
    {
        "name": "Cascade",
        "latitude": 49.0428,
        "longitude": -118.2094,
        "date": 1743147322,
        "weather": "Clouds",
        "weather_description": "overcast clouds",
        "temp": 6.41,
        "visibility": 10000,
        "clouds": 100,
        "rain": 0,
        "snow": 0
    },
    {
        "name": "Criss Creek",
        "latitude": 51.0497,
        "longitude": -120.2344,
        "date": 1743147322,
        "weather": "Clouds",
        "weather_description": "overcast clouds",
        "temp": 4.48,
        "visibility": 5037,
        "clouds": 86,
        "rain": 0,
        "snow": 0
    },
    {
        "name": "Sorrento",
        "latitude": 50.8831,
        "longitude": -119.3844,
        "date": 1743147322,
        "weather": "Clouds",
        "weather_description": "overcast clouds",
        "temp": 5.7,
        "visibility": 10000,
        "clouds": 90,
        "rain": 0,
        "snow": 0
    },
    {
        "name": "Eagle Bluff",
        "latitude": 49.3497,
        "longitude": -119.5678,
        "date": 1743147322,
        "weather": "Rain",
        "weather_description": "moderate rain",
        "temp": 7.31,
        "visibility": 10000,
        "clouds": 75,
        "rain": 1.54,
        "snow": 0
    },
    {
        "name": "Armstrong",
        "latitude": 50.4481,
        "longitude": -119.1967,
        "date": 1743147322,
        "weather": "Clouds",
        "weather_description": "broken clouds",
        "temp": 6.29,
        "visibility": 10000,
        "clouds": 83,
        "rain": 0,
        "snow": 0
    },
    {
        "name": "Vanderhoof",
        "latitude": 54.0172,
        "longitude": -124.0072,
        "date": 1743147322,
        "weather": "Snow",
        "weather_description": "snow",
        "temp": -3.94,
        "visibility": 299,
        "clouds": 100,
        "rain": 0,
        "snow": 0.56
    },
    {
        "name": "Roberts Creek",
        "latitude": 49.4222,
        "longitude": -123.6442,
        "date": 1743147322,
        "weather": "Clouds",
        "weather_description": "overcast clouds",
        "temp": 8.81,
        "visibility": 10000,
        "clouds": 100,
        "rain": 0,
        "snow": 0
    },
    {
        "name": "Clearwater",
        "latitude": 51.6453,
        "longitude": -120.0322,
        "date": 1743147322,
        "weather": "Clouds",
        "weather_description": "overcast clouds",
        "temp": 4.42,
        "visibility": 10000,
        "clouds": 100,
        "rain": 0,
        "snow": 0
    },
    {
        "name": "Metchosin",
        "latitude": 48.3789,
        "longitude": -123.5356,
        "date": 1743147322,
        "weather": "Clouds",
        "weather_description": "overcast clouds",
        "temp": 8.41,
        "visibility": 10000,
        "clouds": 100,
        "rain": 0,
        "snow": 0
    },
    {
        "name": "Port Hardy",
        "latitude": 50.7242,
        "longitude": -127.4981,
        "date": 1743147322,
        "weather": "Clouds",
        "weather_description": "broken clouds",
        "temp": 8.94,
        "visibility": 10000,
        "clouds": 75,
        "rain": 0,
        "snow": 0
    },
    {
        "name": "Skookumchuck",
        "latitude": 49.7831,
        "longitude": -115.7342,
        "date": 1743147322,
        "weather": "Clouds",
        "weather_description": "broken clouds",
        "temp": 2.68,
        "visibility": 10000,
        "clouds": 75,
        "rain": 0,
        "snow": 0
    },
    {
        "name": "Penticton",
        "latitude": 49.3997,
        "longitude": -119.6011,
        "date": 1743147322,
        "weather": "Rain",
        "weather_description": "moderate rain",
        "temp": 6.96,
        "visibility": 10000,
        "clouds": 75,
        "rain": 1.54,
        "snow": 0
    },
    {
        "name": "Brentwood Bay",
        "latitude": 48.5478,
        "longitude": -123.5653,
        "date": 1743147323,
        "weather": "Clouds",
        "weather_description": "overcast clouds",
        "temp": 6.11,
        "visibility": 10000,
        "clouds": 100,
        "rain": 0,
        "snow": 0
    },
    {
        "name": "Prince Rupert",
        "latitude": 54.3125,
        "longitude": -130.3253,
        "date": 1743147323,
        "weather": "Clouds",
        "weather_description": "overcast clouds",
        "temp": 8.25,
        "visibility": 10000,
        "clouds": 93,
        "rain": 0,
        "snow": 0
    },
    {
        "name": "Osoyoos",
        "latitude": 49.0322,
        "longitude": -119.4681,
        "date": 1743147323,
        "weather": "Clouds",
        "weather_description": "overcast clouds",
        "temp": 8.19,
        "visibility": 10000,
        "clouds": 100,
        "rain": 0,
        "snow": 0
    },
    {
        "name": "Chilliwack",
        "latitude": 49.2164,
        "longitude": -122.0178,
        "date": 1743147323,
        "weather": "Clouds",
        "weather_description": "overcast clouds",
        "temp": 7.43,
        "visibility": 10000,
        "clouds": 100,
        "rain": 0,
        "snow": 0
    },
    {
        "name": "Sicamous",
        "latitude": 50.8358,
        "longitude": -118.98,
        "date": 1743147323,
        "weather": "Clouds",
        "weather_description": "broken clouds",
        "temp": 5.98,
        "visibility": 10000,
        "clouds": 52,
        "rain": 0,
        "snow": 0
    },
    {
        "name": "Mission",
        "latitude": 49.2653,
        "longitude": -122.2358,
        "date": 1743147323,
        "weather": "Clouds",
        "weather_description": "overcast clouds",
        "temp": 7.46,
        "visibility": 10000,
        "clouds": 100,
        "rain": 0,
        "snow": 0
    },
    {
        "name": "Sirdar",
        "latitude": 49.2976,
        "longitude": -116.6426,
        "date": 1743147323,
        "weather": "Clouds",
        "weather_description": "broken clouds",
        "temp": 3.98,
        "visibility": 10000,
        "clouds": 51,
        "rain": 0,
        "snow": 0
    },
    {
        "name": "Princeton",
        "latitude": 49.46,
        "longitude": -120.5078,
        "date": 1743147323,
        "weather": "Rain",
        "weather_description": "light rain",
        "temp": 4.52,
        "visibility": 10000,
        "clouds": 100,
        "rain": 1,
        "snow": 0
    },
    {
        "name": "Sorrento",
        "latitude": 50.8767,
        "longitude": -119.4667,
        "date": 1743147323,
        "weather": "Clouds",
        "weather_description": "overcast clouds",
        "temp": 5.79,
        "visibility": 10000,
        "clouds": 95,
        "rain": 0,
        "snow": 0
    },
    {
        "name": "Smithers",
        "latitude": 54.7789,
        "longitude": -127.1758,
        "date": 1743147323,
        "weather": "Rain",
        "weather_description": "light rain",
        "temp": 2.18,
        "visibility": 10000,
        "clouds": 100,
        "rain": 0.12,
        "snow": 0
    },
    {
        "name": "Armstrong",
        "latitude": 50.4022,
        "longitude": -119.2175,
        "date": 1743147323,
        "weather": "Clouds",
        "weather_description": "broken clouds",
        "temp": 6.39,
        "visibility": 10000,
        "clouds": 84,
        "rain": 0,
        "snow": 0
    },
    {
        "name": "Quesnel",
        "latitude": 52.8164,
        "longitude": -122.4178,
        "date": 1743147323,
        "weather": "Snow",
        "weather_description": "light snow",
        "temp": 0.94,
        "visibility": 526,
        "clouds": 99,
        "rain": 0,
        "snow": 0.14
    },
    {
        "name": "Charlie Lake",
        "latitude": 56.2831,
        "longitude": -120.9514,
        "date": 1743147323,
        "weather": "Clouds",
        "weather_description": "overcast clouds",
        "temp": -5.15,
        "visibility": 10000,
        "clouds": 100,
        "rain": 0,
        "snow": 0
    },
    {
        "name": "Lejac",
        "latitude": 54.06,
        "longitude": -124.8439,
        "date": 1743147324,
        "weather": "Snow",
        "weather_description": "light snow",
        "temp": -4.61,
        "visibility": 1206,
        "clouds": 100,
        "rain": 0,
        "snow": 0.19
    },
    {
        "name": "Porto Rico",
        "latitude": 49.2831,
        "longitude": -117.2175,
        "date": 1743147324,
        "weather": "Clouds",
        "weather_description": "overcast clouds",
        "temp": 0.44,
        "visibility": 10000,
        "clouds": 100,
        "rain": 0,
        "snow": 0
    },
    {
        "name": "Fruitvale",
        "latitude": 49.1147,
        "longitude": -117.5428,
        "date": 1743147324,
        "weather": "Clouds",
        "weather_description": "overcast clouds",
        "temp": 2.54,
        "visibility": 10000,
        "clouds": 100,
        "rain": 0,
        "snow": 0
    },
    {
        "name": "Kimberley",
        "latitude": 49.6847,
        "longitude": -115.9817,
        "date": 1743147324,
        "weather": "Clouds",
        "weather_description": "broken clouds",
        "temp": 0.02,
        "visibility": 10000,
        "clouds": 75,
        "rain": 0,
        "snow": 0
    },
    {
        "name": "Invermere",
        "latitude": 50.5056,
        "longitude": -116.0306,
        "date": 1743147324,
        "weather": "Snow",
        "weather_description": "light snow",
        "temp": -0.26,
        "visibility": 9695,
        "clouds": 100,
        "rain": 0,
        "snow": 0.13
    },
    {
        "name": "Lions Bay",
        "latitude": 49.4583,
        "longitude": -123.2353,
        "date": 1743147324,
        "weather": "Rain",
        "weather_description": "moderate rain",
        "temp": 9.33,
        "visibility": 10000,
        "clouds": 100,
        "rain": 2.05,
        "snow": 0
    },
    {
        "name": "Marysville",
        "latitude": 49.5997,
        "longitude": -115.8675,
        "date": 1743147324,
        "weather": "Clouds",
        "weather_description": "broken clouds",
        "temp": 2.15,
        "visibility": 10000,
        "clouds": 75,
        "rain": 0,
        "snow": 0
    },
    {
        "name": "Merritt",
        "latitude": 49.9331,
        "longitude": -120.6178,
        "date": 1743147324,
        "weather": "Clouds",
        "weather_description": "overcast clouds",
        "temp": -0.25,
        "visibility": 10000,
        "clouds": 100,
        "rain": 0,
        "snow": 0
    },
    {
        "name": "Molson",
        "latitude": 49.0331,
        "longitude": -119.1511,
        "date": 1743147324,
        "weather": "Rain",
        "weather_description": "moderate rain",
        "temp": 2.27,
        "visibility": 10000,
        "clouds": 100,
        "rain": 2.05,
        "snow": 0
    },
    {
        "name": "Okanagan",
        "latitude": 50.5011,
        "longitude": -119.5581,
        "date": 1743147324,
        "weather": "Clouds",
        "weather_description": "broken clouds",
        "temp": 4.41,
        "visibility": 10000,
        "clouds": 77,
        "rain": 0,
        "snow": 0
    },
    {
        "name": "Stoner",
        "latitude": 53.5292,
        "longitude": -122.6889,
        "date": 1743147324,
        "weather": "Snow",
        "weather_description": "light snow",
        "temp": -0.91,
        "visibility": 208,
        "clouds": 100,
        "rain": 0,
        "snow": 0.34
    },
    {
        "name": "Terrace",
        "latitude": 54.5164,
        "longitude": -128.5347,
        "date": 1743147324,
        "weather": "Clouds",
        "weather_description": "overcast clouds",
        "temp": 7.88,
        "visibility": 10000,
        "clouds": 100,
        "rain": 0,
        "snow": 0
    },
    {
        "name": "Mackenzie",
        "latitude": 55.3242,
        "longitude": -123.0928,
        "date": 1743147324,
        "weather": "Clouds",
        "weather_description": "few clouds",
        "temp": -5.76,
        "visibility": 10000,
        "clouds": 20,
        "rain": 0,
        "snow": 0
    },
    {
        "name": "Radium Hot Springs",
        "latitude": 50.6197,
        "longitude": -116.0758,
        "date": 1743147325,
        "weather": "Snow",
        "weather_description": "light snow",
        "temp": 0.32,
        "visibility": 4483,
        "clouds": 100,
        "rain": 0,
        "snow": 0.27
    },
    {
        "name": "Groundbirch",
        "latitude": 55.7831,
        "longitude": -120.9181,
        "date": 1743147325,
        "weather": "Clouds",
        "weather_description": "overcast clouds",
        "temp": -6.72,
        "visibility": 2523,
        "clouds": 100,
        "rain": 0,
        "snow": 0
    },
    {
        "name": "Windermere",
        "latitude": 50.3358,
        "longitude": -115.8567,
        "date": 1743147325,
        "weather": "Clouds",
        "weather_description": "overcast clouds",
        "temp": 0.79,
        "visibility": 10000,
        "clouds": 86,
        "rain": 0,
        "snow": 0
    },
    {
        "name": "Salmo",
        "latitude": 49.1906,
        "longitude": -117.3356,
        "date": 1743147325,
        "weather": "Clouds",
        "weather_description": "overcast clouds",
        "temp": 1.94,
        "visibility": 10000,
        "clouds": 99,
        "rain": 0,
        "snow": 0
    },
    {
        "name": "Cumberland",
        "latitude": 49.5833,
        "longitude": -124.8864,
        "date": 1743147325,
        "weather": "Clouds",
        "weather_description": "overcast clouds",
        "temp": 7.48,
        "visibility": 10000,
        "clouds": 100,
        "rain": 0,
        "snow": 0
    },
    {
        "name": "Mission",
        "latitude": 49.1795,
        "longitude": -122.1698,
        "date": 1743147325,
        "weather": "Clouds",
        "weather_description": "overcast clouds",
        "temp": 2.97,
        "visibility": 10000,
        "clouds": 100,
        "rain": 0,
        "snow": 0
    },
    {
        "name": "Popkum",
        "latitude": 49.1997,
        "longitude": -121.7344,
        "date": 1743147325,
        "weather": "Clouds",
        "weather_description": "overcast clouds",
        "temp": 8.47,
        "visibility": 10000,
        "clouds": 100,
        "rain": 0,
        "snow": 0
    }
]