[
    {
        "name": "Port Coquitlam",
        "latitude": 49.2839,
        "longitude": -122.7933,
        "date": 1742970884,
        "weather": "Clouds",
        "weather_description": "broken clouds",
        "temp": 11.47,
        "visibility": 10000,
        "clouds": 78,
        "rain": 0,
        "snow": 0
    },
    {
        "name": "Hope",
        "latitude": 49.3797,
        "longitude": -121.4414,
        "date": 1742970798,
        "weather": "Clear",
        "weather_description": "clear sky",
        "temp": 10.9,
        "visibility": 10000,
        "clouds": 0,
        "rain": 0,
        "snow": 0
    },
    {
        "name": "Port Coquitlam",
        "latitude": 49.2617,
        "longitude": -122.7803,
        "date": 1742970798,
        "weather": "Clouds",
        "weather_description": "broken clouds",
        "temp": 10.85,
        "visibility": 10000,
        "clouds": 78,
        "rain": 0,
        "snow": 0
    },
    {
        "name": "Revelstoke",
        "latitude": 50.9986,
        "longitude": -118.1956,
        "date": 1742970884,
        "weather": "Clouds",
        "weather_description": "overcast clouds",
        "temp": 6.24,
        "visibility": 10000,
        "clouds": 100,
        "rain": 0,
        "snow": 0
    },
    {
        "name": "Chilliwack",
        "latitude": 49.1575,
        "longitude": -121.9506,
        "date": 1742970884,
        "weather": "Clouds",
        "weather_description": "scattered clouds",
        "temp": 11.67,
        "visibility": 10000,
        "clouds": 36,
        "rain": 0,
        "snow": 0
    },
    {
        "name": "Creston",
        "latitude": 49.0972,
        "longitude": -116.5131,
        "date": 1742970884,
        "weather": "Clouds",
        "weather_description": "overcast clouds",
        "temp": 9.07,
        "visibility": 321,
        "clouds": 100,
        "rain": 0,
        "snow": 0
    },
    {
        "name": "Hilliers",
        "latitude": 49.2997,
        "longitude": -124.4178,
        "date": 1742970799,
        "weather": "Clouds",
        "weather_description": "overcast clouds",
        "temp": 10.74,
        "visibility": 978,
        "clouds": 100,
        "rain": 0,
        "snow": 0
    },
    {
        "name": "Fernie",
        "latitude": 49.7331,
        "longitude": -114.8856,
        "date": 1742970799,
        "weather": "Clouds",
        "weather_description": "overcast clouds",
        "temp": 4.26,
        "visibility": {},
        "clouds": 100,
        "rain": 0,
        "snow": 0
    },
    {
        "name": "Halfmoon Bay",
        "latitude": 49.5164,
        "longitude": -123.9178,
        "date": 1742970799,
        "weather": "Clouds",
        "weather_description": "overcast clouds",
        "temp": 10.89,
        "visibility": 10000,
        "clouds": 100,
        "rain": 0,
        "snow": 0
    },
    {
        "name": "Keremeos",
        "latitude": 49.2044,
        "longitude": -119.8294,
        "date": 1742970885,
        "weather": "Clouds",
        "weather_description": "overcast clouds",
        "temp": 8.12,
        "visibility": 2938,
        "clouds": 100,
        "rain": 0,
        "snow": 0
    },
    {
        "name": "Port Moody",
        "latitude": 49.2819,
        "longitude": -122.8292,
        "date": 1742970799,
        "weather": "Clouds",
        "weather_description": "broken clouds",
        "temp": 10.53,
        "visibility": 10000,
        "clouds": 79,
        "rain": 0,
        "snow": 0
    },
    {
        "name": "Nanaimo",
        "latitude": 49.2503,
        "longitude": -124.0742,
        "date": 1742970885,
        "weather": "Clouds",
        "weather_description": "overcast clouds",
        "temp": 10.29,
        "visibility": 10000,
        "clouds": 100,
        "rain": 0,
        "snow": 0
    },
    {
        "name": "Terrace",
        "latitude": 54.5161,
        "longitude": -128.5994,
        "date": 1742970885,
        "weather": "Clear",
        "weather_description": "clear sky",
        "temp": 4.95,
        "visibility": 10000,
        "clouds": 0,
        "rain": 0,
        "snow": 0
    },
    {
        "name": "Grand Forks",
        "latitude": 49.0308,
        "longitude": -118.4392,
        "date": 1742970885,
        "weather": "Clouds",
        "weather_description": "overcast clouds",
        "temp": 7.48,
        "visibility": 36,
        "clouds": 100,
        "rain": 0,
        "snow": 0
    },
    {
        "name": "Brentwood Bay",
        "latitude": 48.5942,
        "longitude": -123.4206,
        "date": 1742970885,
        "weather": "Fog",
        "weather_description": "fog",
        "temp": 11.41,
        "visibility": 402,
        "clouds": 100,
        "rain": 0,
        "snow": 0
    },
    {
        "name": "Kelowna",
        "latitude": 49.8878,
        "longitude": -119.4956,
        "date": 1742970800,
        "weather": "Clouds",
        "weather_description": "overcast clouds",
        "temp": 8.42,
        "visibility": 10000,
        "clouds": 100,
        "rain": 0,
        "snow": 0
    },
    {
        "name": "Cobble Hill",
        "latitude": 48.6519,
        "longitude": -123.5589,
        "date": 1742970800,
        "weather": "Fog",
        "weather_description": "fog",
        "temp": 11.1,
        "visibility": 402,
        "clouds": 100,
        "rain": 0,
        "snow": 0
    },
    {
        "name": "Port Alberni",
        "latitude": 49.2342,
        "longitude": -124.8056,
        "date": 1742970885,
        "weather": "Clouds",
        "weather_description": "overcast clouds",
        "temp": 10.3,
        "visibility": {},
        "clouds": 100,
        "rain": 0,
        "snow": 0
    },
    {
        "name": "Maplewood",
        "latitude": 48.4564,
        "longitude": -123.3731,
        "date": 1742970885,
        "weather": "Clouds",
        "weather_description": "overcast clouds",
        "temp": 11.4,
        "visibility": 10000,
        "clouds": 100,
        "rain": 0,
        "snow": 0
    },
    {
        "name": "Cranbrook",
        "latitude": 49.5078,
        "longitude": -115.7467,
        "date": 1742970885,
        "weather": "Clouds",
        "weather_description": "broken clouds",
        "temp": 6.72,
        "visibility": 10000,
        "clouds": 75,
        "rain": 0,
        "snow": 0
    },
    {
        "name": "Parksville",
        "latitude": 49.3178,
        "longitude": -124.3114,
        "date": 1742970800,
        "weather": "Clouds",
        "weather_description": "overcast clouds",
        "temp": 11.2,
        "visibility": {},
        "clouds": 100,
        "rain": 0,
        "snow": 0
    },
    {
        "name": "Langley",
        "latitude": 49.1022,
        "longitude": -122.6581,
        "date": 1742970800,
        "weather": "Clouds",
        "weather_description": "broken clouds",
        "temp": 11.53,
        "visibility": 10000,
        "clouds": 83,
        "rain": 0,
        "snow": 0
    },
    {
        "name": "Powell River",
        "latitude": 49.8353,
        "longitude": -124.5242,
        "date": 1742970886,
        "weather": "Clouds",
        "weather_description": "overcast clouds",
        "temp": 10.51,
        "visibility": 10000,
        "clouds": 100,
        "rain": 0,
        "snow": 0
    },
    {
        "name": "Duncan",
        "latitude": 48.7783,
        "longitude": -123.7081,
        "date": 1742970886,
        "weather": "Clouds",
        "weather_description": "overcast clouds",
        "temp": 11.39,
        "visibility": 2873,
        "clouds": 96,
        "rain": 0,
        "snow": 0
    },
    {
        "name": "Garibaldi Highlands",
        "latitude": 49.6978,
        "longitude": -123.1556,
        "date": 1742970886,
        "weather": "Clouds",
        "weather_description": "overcast clouds",
        "temp": 11.54,
        "visibility": {},
        "clouds": 100,
        "rain": 0,
        "snow": 0
    },
    {
        "name": "Sechelt",
        "latitude": 49.4714,
        "longitude": -123.7631,
        "date": 1742970800,
        "weather": "Clouds",
        "weather_description": "overcast clouds",
        "temp": 10.6,
        "visibility": 10000,
        "clouds": 100,
        "rain": 0,
        "snow": 0
    },
    {
        "name": "Houston",
        "latitude": 54.3981,
        "longitude": -126.6481,
        "date": 1742970800,
        "weather": "Clouds",
        "weather_description": "overcast clouds",
        "temp": -1.25,
        "visibility": 10000,
        "clouds": 100,
        "rain": 0,
        "snow": 0
    },
    {
        "name": "White Rock",
        "latitude": 49.0233,
        "longitude": -122.7981,
        "date": 1742970886,
        "weather": "Clouds",
        "weather_description": "overcast clouds",
        "temp": 10.83,
        "visibility": 9844,
        "clouds": 97,
        "rain": 0,
        "snow": 0
    },
    {
        "name": "Maple Ridge",
        "latitude": 49.2197,
        "longitude": -122.5989,
        "date": 1742970886,
        "weather": "Clouds",
        "weather_description": "broken clouds",
        "temp": 11.59,
        "visibility": 10000,
        "clouds": 55,
        "rain": 0,
        "snow": 0
    },
    {
        "name": "Salmo",
        "latitude": 49.1931,
        "longitude": -117.2783,
        "date": 1742970865,
        "weather": "Clouds",
        "weather_description": "overcast clouds",
        "temp": 6.94,
        "visibility": 33,
        "clouds": 100,
        "rain": 0,
        "snow": 0
    },
    {
        "name": "Merritt",
        "latitude": 50.1122,
        "longitude": -120.7881,
        "date": 1742970865,
        "weather": "Clouds",
        "weather_description": "overcast clouds",
        "temp": 7.19,
        "visibility": 64,
        "clouds": 100,
        "rain": 0,
        "snow": 0
    },
    {
        "name": "North Saanich",
        "latitude": 48.6561,
        "longitude": -123.4319,
        "date": 1742970801,
        "weather": "Fog",
        "weather_description": "fog",
        "temp": 11.55,
        "visibility": 402,
        "clouds": 100,
        "rain": 0,
        "snow": 0
    },
    {
        "name": "Dawson Creek",
        "latitude": 55.7603,
        "longitude": -120.2356,
        "date": 1742970865,
        "weather": "Clouds",
        "weather_description": "few clouds",
        "temp": 1.14,
        "visibility": 10000,
        "clouds": 20,
        "rain": 0,
        "snow": 0
    },
    {
        "name": "Prince George",
        "latitude": 53.9128,
        "longitude": -122.7453,
        "date": 1742970865,
        "weather": "Clouds",
        "weather_description": "few clouds",
        "temp": 1.74,
        "visibility": 10000,
        "clouds": 20,
        "rain": 0,
        "snow": 0
    },
    {
        "name": "Merville",
        "latitude": 49.8331,
        "longitude": -125.1344,
        "date": 1742970865,
        "weather": "Clouds",
        "weather_description": "overcast clouds",
        "temp": 10.06,
        "visibility": 10000,
        "clouds": 100,
        "rain": 0,
        "snow": 0
    },
    {
        "name": "Castlegar",
        "latitude": 49.3242,
        "longitude": -117.6667,
        "date": 1742970866,
        "weather": "Clouds",
        "weather_description": "overcast clouds",
        "temp": 8.73,
        "visibility": 43,
        "clouds": 100,
        "rain": 0,
        "snow": 0
    },
    {
        "name": "Williams Lake",
        "latitude": 52.1289,
        "longitude": -122.14,
        "date": 1742970866,
        "weather": "Mist",
        "weather_description": "mist",
        "temp": 3.65,
        "visibility": 4828,
        "clouds": 100,
        "rain": 0,
        "snow": 0
    },
    {
        "name": "Esquimalt",
        "latitude": 48.4294,
        "longitude": -123.4142,
        "date": 1742970801,
        "weather": "Clouds",
        "weather_description": "overcast clouds",
        "temp": 11.29,
        "visibility": 10000,
        "clouds": 100,
        "rain": 0,
        "snow": 0
    },
    {
        "name": "Surrey",
        "latitude": 49.1114,
        "longitude": -122.8275,
        "date": 1742970866,
        "weather": "Clouds",
        "weather_description": "overcast clouds",
        "temp": 11.16,
        "visibility": 10000,
        "clouds": 88,
        "rain": 0,
        "snow": 0
    },
    {
        "name": "Coldstream",
        "latitude": 50.2236,
        "longitude": -119.23,
        "date": 1742970866,
        "weather": "Clouds",
        "weather_description": "overcast clouds",
        "temp": 6.77,
        "visibility": 10000,
        "clouds": 100,
        "rain": 0,
        "snow": 0
    },
    {
        "name": "Fort St. John",
        "latitude": 56.2522,
        "longitude": -120.8467,
        "date": 1742970866,
        "weather": "Clouds",
        "weather_description": "scattered clouds",
        "temp": 2.94,
        "visibility": 10000,
        "clouds": 40,
        "rain": 0,
        "snow": 0
    },
    {
        "name": "New Westminster",
        "latitude": 49.2064,
        "longitude": -122.9106,
        "date": 1742970866,
        "weather": "Clouds",
        "weather_description": "broken clouds",
        "temp": 10.99,
        "visibility": 10000,
        "clouds": 81,
        "rain": 0,
        "snow": 0
    },
    {
        "name": "Mission",
        "latitude": 49.1589,
        "longitude": -122.2839,
        "date": 1742970866,
        "weather": "Clouds",
        "weather_description": "broken clouds",
        "temp": 10.57,
        "visibility": 10000,
        "clouds": 75,
        "rain": 0,
        "snow": 0
    },
    {
        "name": "Nanaimo",
        "latitude": 49.1636,
        "longitude": -123.9381,
        "date": 1742970866,
        "weather": "Clouds",
        "weather_description": "overcast clouds",
        "temp": 11.18,
        "visibility": 10000,
        "clouds": 100,
        "rain": 0,
        "snow": 0
    },
    {
        "name": "Salt Spring Island",
        "latitude": 48.8246,
        "longitude": -123.4974,
        "date": 1742970866,
        "weather": "Clouds",
        "weather_description": "broken clouds",
        "temp": 9.63,
        "visibility": {},
        "clouds": 77,
        "rain": 0,
        "snow": 0
    },
    {
        "name": "Lake Country",
        "latitude": 50.03,
        "longitude": -119.4025,
        "date": 1742970866,
        "weather": "Clouds",
        "weather_description": "overcast clouds",
        "temp": 6.65,
        "visibility": 10000,
        "clouds": 100,
        "rain": 0,
        "snow": 0
    },
    {
        "name": "Summerland",
        "latitude": 49.6019,
        "longitude": -119.6817,
        "date": 1742970866,
        "weather": "Clouds",
        "weather_description": "broken clouds",
        "temp": 7.31,
        "visibility": 10000,
        "clouds": 75,
        "rain": 0,
        "snow": 0
    },
    {
        "name": "Hollyburn",
        "latitude": 49.3308,
        "longitude": -123.1594,
        "date": 1742970867,
        "weather": "Clouds",
        "weather_description": "overcast clouds",
        "temp": 9.65,
        "visibility": 10000,
        "clouds": 95,
        "rain": 0,
        "snow": 0
    },
    {
        "name": "Burnaby",
        "latitude": 49.2425,
        "longitude": -122.9728,
        "date": 1742970867,
        "weather": "Clouds",
        "weather_description": "broken clouds",
        "temp": 11.52,
        "visibility": 10000,
        "clouds": 81,
        "rain": 0,
        "snow": 0
    },
    {
        "name": "Kamloops",
        "latitude": 50.6756,
        "longitude": -120.3392,
        "date": 1742970867,
        "weather": "Clouds",
        "weather_description": "overcast clouds",
        "temp": 8.23,
        "visibility": 10000,
        "clouds": 100,
        "rain": 0,
        "snow": 0
    },
    {
        "name": "Esquimalt",
        "latitude": 48.4517,
        "longitude": -123.4342,
        "date": 1742970803,
        "weather": "Clouds",
        "weather_description": "overcast clouds",
        "temp": 11.5,
        "visibility": 10000,
        "clouds": 100,
        "rain": 0,
        "snow": 0
    },
    {
        "name": "Sorrento",
        "latitude": 50.8997,
        "longitude": -119.5344,
        "date": 1742970867,
        "weather": "Clouds",
        "weather_description": "overcast clouds",
        "temp": 6.98,
        "visibility": 2155,
        "clouds": 100,
        "rain": 0,
        "snow": 0
    },
    {
        "name": "Vancouver",
        "latitude": 49.2656,
        "longitude": -123.2356,
        "date": 1742970867,
        "weather": "Clouds",
        "weather_description": "overcast clouds",
        "temp": 10.49,
        "visibility": 10000,
        "clouds": 99,
        "rain": 0,
        "snow": 0
    },
    {
        "name": "Victoria",
        "latitude": 48.4281,
        "longitude": -123.3644,
        "date": 1742970803,
        "weather": "Clouds",
        "weather_description": "overcast clouds",
        "temp": 10.83,
        "visibility": 10000,
        "clouds": 100,
        "rain": 0,
        "snow": 0
    },
    {
        "name": "Fruitvale",
        "latitude": 49.0786,
        "longitude": -117.5942,
        "date": 1742970867,
        "weather": "Clouds",
        "weather_description": "overcast clouds",
        "temp": 6.81,
        "visibility": 82,
        "clouds": 100,
        "rain": 0,
        "snow": 0
    },
    {
        "name": "Enderby",
        "latitude": 50.5503,
        "longitude": -119.1392,
        "date": 1742970867,
        "weather": "Clouds",
        "weather_description": "overcast clouds",
        "temp": 6.05,
        "visibility": 8693,
        "clouds": 100,
        "rain": 0,
        "snow": 0
    },
    {
        "name": "Golden",
        "latitude": 51.2975,
        "longitude": -116.9644,
        "date": 1742970803,
        "weather": "Clouds",
        "weather_description": "overcast clouds",
        "temp": 4.74,
        "visibility": 39,
        "clouds": 100,
        "rain": 0,
        "snow": 0
    },
    {
        "name": "West Kelowna",
        "latitude": 49.8603,
        "longitude": -119.6082,
        "date": 1742970867,
        "weather": "Clouds",
        "weather_description": "overcast clouds",
        "temp": 3.69,
        "visibility": 10000,
        "clouds": 100,
        "rain": 0,
        "snow": 0
    },
    {
        "name": "Abbotsford",
        "latitude": 49.0519,
        "longitude": -122.3292,
        "date": 1742970867,
        "weather": "Clouds",
        "weather_description": "broken clouds",
        "temp": 11.3,
        "visibility": 10000,
        "clouds": 75,
        "rain": 0,
        "snow": 0
    },
    {
        "name": "Chemainus",
        "latitude": 48.9164,
        "longitude": -123.7178,
        "date": 1742970867,
        "weather": "Clouds",
        "weather_description": "overcast clouds",
        "temp": 11.46,
        "visibility": 10000,
        "clouds": 99,
        "rain": 0,
        "snow": 0
    },
    {
        "name": "Qualicum Beach",
        "latitude": 49.3478,
        "longitude": -124.4439,
        "date": 1742970867,
        "weather": "Clouds",
        "weather_description": "overcast clouds",
        "temp": 10.96,
        "visibility": 5935,
        "clouds": 100,
        "rain": 0,
        "snow": 0
    },
    {
        "name": "Sooke",
        "latitude": 48.3825,
        "longitude": -123.7317,
        "date": 1742970868,
        "weather": "Clouds",
        "weather_description": "overcast clouds",
        "temp": 11.14,
        "visibility": 6901,
        "clouds": 93,
        "rain": 0,
        "snow": 0
    },
    {
        "name": "Agassiz",
        "latitude": 49.2331,
        "longitude": -121.7678,
        "date": 1742970868,
        "weather": "Clouds",
        "weather_description": "few clouds",
        "temp": 11.6,
        "visibility": 10000,
        "clouds": 20,
        "rain": 0,
        "snow": 0
    },
    {
        "name": "Lake Cowichan",
        "latitude": 48.8256,
        "longitude": -124.0564,
        "date": 1742970868,
        "weather": "Clouds",
        "weather_description": "overcast clouds",
        "temp": 9.72,
        "visibility": {},
        "clouds": 100,
        "rain": 0,
        "snow": 0
    },
    {
        "name": "Trail",
        "latitude": 49.0942,
        "longitude": -117.7092,
        "date": 1742970804,
        "weather": "Clouds",
        "weather_description": "overcast clouds",
        "temp": 9.41,
        "visibility": 82,
        "clouds": 100,
        "rain": 0,
        "snow": 0
    },
    {
        "name": "Pemberton",
        "latitude": 50.3203,
        "longitude": -122.8078,
        "date": 1742970868,
        "weather": "Clouds",
        "weather_description": "overcast clouds",
        "temp": 9.96,
        "visibility": 2662,
        "clouds": 100,
        "rain": 0,
        "snow": 0
    },
    {
        "name": "Vernon",
        "latitude": 50.2656,
        "longitude": -119.2717,
        "date": 1742970804,
        "weather": "Clouds",
        "weather_description": "overcast clouds",
        "temp": 6.92,
        "visibility": 10000,
        "clouds": 100,
        "rain": 0,
        "snow": 0
    },
    {
        "name": "Cobble Hill",
        "latitude": 48.6831,
        "longitude": -123.6011,
        "date": 1742970868,
        "weather": "Fog",
        "weather_description": "fog",
        "temp": 9.97,
        "visibility": 402,
        "clouds": 100,
        "rain": 0,
        "snow": 0
    },
    {
        "name": "Ladysmith",
        "latitude": 48.9931,
        "longitude": -123.8156,
        "date": 1742970868,
        "weather": "Clouds",
        "weather_description": "overcast clouds",
        "temp": 11.31,
        "visibility": 10000,
        "clouds": 100,
        "rain": 0,
        "snow": 0
    },
    {
        "name": "Parksville",
        "latitude": 49.2664,
        "longitude": -124.2011,
        "date": 1742970868,
        "weather": "Clouds",
        "weather_description": "overcast clouds",
        "temp": 10.76,
        "visibility": 918,
        "clouds": 100,
        "rain": 0,
        "snow": 0
    },
    {
        "name": "Penticton",
        "latitude": 49.5006,
        "longitude": -119.5939,
        "date": 1742970868,
        "weather": "Clouds",
        "weather_description": "broken clouds",
        "temp": 9.4,
        "visibility": 10000,
        "clouds": 75,
        "rain": 0,
        "snow": 0
    },
    {
        "name": "Campbell River",
        "latitude": 50.0228,
        "longitude": -125.2433,
        "date": 1742970868,
        "weather": "Clouds",
        "weather_description": "overcast clouds",
        "temp": 10.3,
        "visibility": 10000,
        "clouds": 100,
        "rain": 0,
        "snow": 0
    },
    {
        "name": "Colwood",
        "latitude": 48.4233,
        "longitude": -123.4931,
        "date": 1742970804,
        "weather": "Clouds",
        "weather_description": "overcast clouds",
        "temp": 11.22,
        "visibility": 10000,
        "clouds": 100,
        "rain": 0,
        "snow": 0
    },
    {
        "name": "Quesnel",
        "latitude": 52.9794,
        "longitude": -122.4933,
        "date": 1742970868,
        "weather": "Mist",
        "weather_description": "mist",
        "temp": 4.34,
        "visibility": 9656,
        "clouds": 100,
        "rain": 0,
        "snow": 0
    },
    {
        "name": "Pitt Meadows",
        "latitude": 49.2203,
        "longitude": -122.6903,
        "date": 1742970869,
        "weather": "Clouds",
        "weather_description": "broken clouds",
        "temp": 11.59,
        "visibility": 10000,
        "clouds": 70,
        "rain": 0,
        "snow": 0
    },
    {
        "name": "Courtenay",
        "latitude": 49.6892,
        "longitude": -124.9956,
        "date": 1742970869,
        "weather": "Clouds",
        "weather_description": "overcast clouds",
        "temp": 10.34,
        "visibility": 10000,
        "clouds": 100,
        "rain": 0,
        "snow": 0
    },
    {
        "name": "Ladner",
        "latitude": 49.0844,
        "longitude": -123.0583,
        "date": 1742970869,
        "weather": "Clouds",
        "weather_description": "overcast clouds",
        "temp": 11.56,
        "visibility": 7991,
        "clouds": 97,
        "rain": 0,
        "snow": 0
    },
    {
        "name": "Oak Bay",
        "latitude": 48.4256,
        "longitude": -123.3181,
        "date": 1742970869,
        "weather": "Clouds",
        "weather_description": "overcast clouds",
        "temp": 11.31,
        "visibility": 10000,
        "clouds": 100,
        "rain": 0,
        "snow": 0
    },
    {
        "name": "Cobble Hill",
        "latitude": 48.6575,
        "longitude": -123.6275,
        "date": 1742970805,
        "weather": "Fog",
        "weather_description": "fog",
        "temp": 10.6,
        "visibility": 402,
        "clouds": 100,
        "rain": 0,
        "snow": 0
    },
    {
        "name": "Richmond",
        "latitude": 49.1631,
        "longitude": -123.1631,
        "date": 1742970869,
        "weather": "Clouds",
        "weather_description": "overcast clouds",
        "temp": 11.54,
        "visibility": 10000,
        "clouds": 97,
        "rain": 0,
        "snow": 0
    },
    {
        "name": "Whistler",
        "latitude": 50.1169,
        "longitude": -122.9544,
        "date": 1742970869,
        "weather": "Clouds",
        "weather_description": "overcast clouds",
        "temp": 6.66,
        "visibility": 8400,
        "clouds": 100,
        "rain": 0,
        "snow": 0
    },
    {
        "name": "Elkford",
        "latitude": 50.0242,
        "longitude": -114.9217,
        "date": 1742970869,
        "weather": "Clouds",
        "weather_description": "overcast clouds",
        "temp": 3.16,
        "visibility": 10000,
        "clouds": 96,
        "rain": 0,
        "snow": 0
    },
    {
        "name": "Gibsons",
        "latitude": 49.4,
        "longitude": -123.5089,
        "date": 1742970869,
        "weather": "Clouds",
        "weather_description": "overcast clouds",
        "temp": 10.46,
        "visibility": 10000,
        "clouds": 100,
        "rain": 0,
        "snow": 0
    },
    {
        "name": "Comox",
        "latitude": 49.6725,
        "longitude": -124.9278,
        "date": 1742970805,
        "weather": "Clouds",
        "weather_description": "overcast clouds",
        "temp": 10.15,
        "visibility": 10000,
        "clouds": 100,
        "rain": 0,
        "snow": 0
    },
    {
        "name": "Salmon Arm",
        "latitude": 50.7011,
        "longitude": -119.2781,
        "date": 1742970869,
        "weather": "Clouds",
        "weather_description": "overcast clouds",
        "temp": 7.27,
        "visibility": 7393,
        "clouds": 100,
        "rain": 0,
        "snow": 0
    },
    {
        "name": "Vancouver",
        "latitude": 49.2608,
        "longitude": -123.1139,
        "date": 1742970869,
        "weather": "Clouds",
        "weather_description": "overcast clouds",
        "temp": 11.42,
        "visibility": 10000,
        "clouds": 89,
        "rain": 0,
        "snow": 0
    },
    {
        "name": "Langford",
        "latitude": 48.4494,
        "longitude": -123.5042,
        "date": 1742970869,
        "weather": "Clouds",
        "weather_description": "overcast clouds",
        "temp": 10.96,
        "visibility": 10000,
        "clouds": 99,
        "rain": 0,
        "snow": 0
    },
    {
        "name": "North Vancouver",
        "latitude": 49.3203,
        "longitude": -123.0739,
        "date": 1742970870,
        "weather": "Clouds",
        "weather_description": "overcast clouds",
        "temp": 11.12,
        "visibility": 10000,
        "clouds": 88,
        "rain": 0,
        "snow": 0
    },
    {
        "name": "Oliver",
        "latitude": 49.1822,
        "longitude": -119.5506,
        "date": 1742970870,
        "weather": "Clouds",
        "weather_description": "overcast clouds",
        "temp": 8.66,
        "visibility": 7907,
        "clouds": 100,
        "rain": 0,
        "snow": 0
    },
    {
        "name": "Peachland",
        "latitude": 49.7736,
        "longitude": -119.7364,
        "date": 1742970870,
        "weather": "Clouds",
        "weather_description": "overcast clouds",
        "temp": 7.03,
        "visibility": 505,
        "clouds": 100,
        "rain": 0,
        "snow": 0
    },
    {
        "name": "Cowichan Bay",
        "latitude": 48.7331,
        "longitude": -123.6178,
        "date": 1742970870,
        "weather": "Fog",
        "weather_description": "fog",
        "temp": 10.53,
        "visibility": 402,
        "clouds": 100,
        "rain": 0,
        "snow": 0
    },
    {
        "name": "Fernie",
        "latitude": 49.5039,
        "longitude": -115.0628,
        "date": 1742970870,
        "weather": "Clouds",
        "weather_description": "overcast clouds",
        "temp": 5.61,
        "visibility": 147,
        "clouds": 100,
        "rain": 0,
        "snow": 0
    },
    {
        "name": "Tappen",
        "latitude": 50.7831,
        "longitude": -119.3344,
        "date": 1742970806,
        "weather": "Clouds",
        "weather_description": "overcast clouds",
        "temp": 6.59,
        "visibility": 6119,
        "clouds": 100,
        "rain": 0,
        "snow": 0
    },
    {
        "name": "Chetwynd",
        "latitude": 55.6956,
        "longitude": -121.6381,
        "date": 1742970806,
        "weather": "Clouds",
        "weather_description": "broken clouds",
        "temp": -0.52,
        "visibility": 10000,
        "clouds": 72,
        "rain": 0,
        "snow": 0
    },
    {
        "name": "Chilliwack",
        "latitude": 49.1831,
        "longitude": -122.0678,
        "date": 1742970870,
        "weather": "Clouds",
        "weather_description": "scattered clouds",
        "temp": 8.19,
        "visibility": 7627,
        "clouds": 38,
        "rain": 0,
        "snow": 0
    },
    {
        "name": "Sidney",
        "latitude": 48.6503,
        "longitude": -123.3981,
        "date": 1742970870,
        "weather": "Fog",
        "weather_description": "fog",
        "temp": 11.5,
        "visibility": 402,
        "clouds": 100,
        "rain": 0,
        "snow": 0
    },
    {
        "name": "Nelson",
        "latitude": 49.4931,
        "longitude": -117.2956,
        "date": 1742970807,
        "weather": "Clouds",
        "weather_description": "overcast clouds",
        "temp": 6.03,
        "visibility": 31,
        "clouds": 100,
        "rain": 0,
        "snow": 0
    },
    {
        "name": "Cascade",
        "latitude": 49.0428,
        "longitude": -118.2094,
        "date": 1742970870,
        "weather": "Clouds",
        "weather_description": "overcast clouds",
        "temp": 8.51,
        "visibility": 86,
        "clouds": 100,
        "rain": 0,
        "snow": 0
    },
    {
        "name": "Criss Creek",
        "latitude": 51.0497,
        "longitude": -120.2344,
        "date": 1742970807,
        "weather": "Clouds",
        "weather_description": "overcast clouds",
        "temp": 5.95,
        "visibility": {},
        "clouds": 100,
        "rain": 0,
        "snow": 0
    },
    {
        "name": "Sorrento",
        "latitude": 50.8831,
        "longitude": -119.3844,
        "date": 1742970870,
        "weather": "Clouds",
        "weather_description": "overcast clouds",
        "temp": 6.97,
        "visibility": 5886,
        "clouds": 100,
        "rain": 0,
        "snow": 0
    },
    {
        "name": "Eagle Bluff",
        "latitude": 49.3497,
        "longitude": -119.5678,
        "date": 1742970871,
        "weather": "Clouds",
        "weather_description": "broken clouds",
        "temp": 9.58,
        "visibility": 10000,
        "clouds": 75,
        "rain": 0,
        "snow": 0
    },
    {
        "name": "Armstrong",
        "latitude": 50.4481,
        "longitude": -119.1967,
        "date": 1742970807,
        "weather": "Clouds",
        "weather_description": "overcast clouds",
        "temp": 6.93,
        "visibility": 10000,
        "clouds": 100,
        "rain": 0,
        "snow": 0
    },
    {
        "name": "Vanderhoof",
        "latitude": 54.0172,
        "longitude": -124.0072,
        "date": 1742970871,
        "weather": "Clouds",
        "weather_description": "overcast clouds",
        "temp": 0.79,
        "visibility": {},
        "clouds": 100,
        "rain": 0,
        "snow": 0
    },
    {
        "name": "Roberts Creek",
        "latitude": 49.4222,
        "longitude": -123.6442,
        "date": 1742970871,
        "weather": "Clouds",
        "weather_description": "overcast clouds",
        "temp": 10.82,
        "visibility": 10000,
        "clouds": 100,
        "rain": 0,
        "snow": 0
    },
    {
        "name": "Clearwater",
        "latitude": 51.6453,
        "longitude": -120.0322,
        "date": 1742970871,
        "weather": "Clouds",
        "weather_description": "overcast clouds",
        "temp": 6,
        "visibility": 58,
        "clouds": 100,
        "rain": 0,
        "snow": 0
    },
    {
        "name": "Metchosin",
        "latitude": 48.3789,
        "longitude": -123.5356,
        "date": 1742970871,
        "weather": "Clouds",
        "weather_description": "overcast clouds",
        "temp": 11.26,
        "visibility": 10000,
        "clouds": 100,
        "rain": 0,
        "snow": 0
    },
    {
        "name": "Port Hardy",
        "latitude": 50.7242,
        "longitude": -127.4981,
        "date": 1742970807,
        "weather": "Rain",
        "weather_description": "light rain",
        "temp": 7.94,
        "visibility": 10000,
        "clouds": 100,
        "rain": 0.22,
        "snow": 0
    },
    {
        "name": "Skookumchuck",
        "latitude": 49.7831,
        "longitude": -115.7342,
        "date": 1742970807,
        "weather": "Clouds",
        "weather_description": "broken clouds",
        "temp": 7.36,
        "visibility": 10000,
        "clouds": 75,
        "rain": 0,
        "snow": 0
    },
    {
        "name": "Penticton",
        "latitude": 49.3997,
        "longitude": -119.6011,
        "date": 1742970871,
        "weather": "Clouds",
        "weather_description": "broken clouds",
        "temp": 9.2,
        "visibility": 10000,
        "clouds": 75,
        "rain": 0,
        "snow": 0
    },
    {
        "name": "Brentwood Bay",
        "latitude": 48.5478,
        "longitude": -123.5653,
        "date": 1742970808,
        "weather": "Fog",
        "weather_description": "fog",
        "temp": 9.02,
        "visibility": 402,
        "clouds": 100,
        "rain": 0,
        "snow": 0
    },
    {
        "name": "Prince Rupert",
        "latitude": 54.3125,
        "longitude": -130.3253,
        "date": 1742970871,
        "weather": "Mist",
        "weather_description": "mist",
        "temp": 5.78,
        "visibility": 9656,
        "clouds": 20,
        "rain": 0,
        "snow": 0
    },
    {
        "name": "Osoyoos",
        "latitude": 49.0322,
        "longitude": -119.4681,
        "date": 1742970871,
        "weather": "Clouds",
        "weather_description": "overcast clouds",
        "temp": 10.37,
        "visibility": 10000,
        "clouds": 100,
        "rain": 0,
        "snow": 0
    },
    {
        "name": "Chilliwack",
        "latitude": 49.2164,
        "longitude": -122.0178,
        "date": 1742970871,
        "weather": "Clouds",
        "weather_description": "scattered clouds",
        "temp": 10.71,
        "visibility": 5871,
        "clouds": 40,
        "rain": 0,
        "snow": 0
    },
    {
        "name": "Sicamous",
        "latitude": 50.8358,
        "longitude": -118.98,
        "date": 1742970808,
        "weather": "Clouds",
        "weather_description": "overcast clouds",
        "temp": 7.88,
        "visibility": 7078,
        "clouds": 100,
        "rain": 0,
        "snow": 0
    },
    {
        "name": "Mission",
        "latitude": 49.2653,
        "longitude": -122.2358,
        "date": 1742970872,
        "weather": "Clouds",
        "weather_description": "scattered clouds",
        "temp": 10.43,
        "visibility": 6787,
        "clouds": 27,
        "rain": 0,
        "snow": 0
    },
    {
        "name": "Sirdar",
        "latitude": 49.2976,
        "longitude": -116.6426,
        "date": 1742970872,
        "weather": "Clouds",
        "weather_description": "overcast clouds",
        "temp": 8.12,
        "visibility": 93,
        "clouds": 100,
        "rain": 0,
        "snow": 0
    },
    {
        "name": "Princeton",
        "latitude": 49.46,
        "longitude": -120.5078,
        "date": 1742970872,
        "weather": "Clouds",
        "weather_description": "overcast clouds",
        "temp": 7.31,
        "visibility": 705,
        "clouds": 100,
        "rain": 0,
        "snow": 0
    },
    {
        "name": "Sorrento",
        "latitude": 50.8767,
        "longitude": -119.4667,
        "date": 1742970872,
        "weather": "Clouds",
        "weather_description": "overcast clouds",
        "temp": 7.13,
        "visibility": 3894,
        "clouds": 100,
        "rain": 0,
        "snow": 0
    },
    {
        "name": "Smithers",
        "latitude": 54.7789,
        "longitude": -127.1758,
        "date": 1742970808,
        "weather": "Clear",
        "weather_description": "clear sky",
        "temp": 0.18,
        "visibility": 10000,
        "clouds": 0,
        "rain": 0,
        "snow": 0
    },
    {
        "name": "Armstrong",
        "latitude": 50.4022,
        "longitude": -119.2175,
        "date": 1742970872,
        "weather": "Clouds",
        "weather_description": "overcast clouds",
        "temp": 7.01,
        "visibility": 10000,
        "clouds": 100,
        "rain": 0,
        "snow": 0
    },
    {
        "name": "Quesnel",
        "latitude": 52.8164,
        "longitude": -122.4178,
        "date": 1742970872,
        "weather": "Clouds",
        "weather_description": "overcast clouds",
        "temp": 4.03,
        "visibility": 1492,
        "clouds": 100,
        "rain": 0,
        "snow": 0
    },
    {
        "name": "Charlie Lake",
        "latitude": 56.2831,
        "longitude": -120.9514,
        "date": 1742970872,
        "weather": "Clouds",
        "weather_description": "scattered clouds",
        "temp": 2.85,
        "visibility": 10000,
        "clouds": 40,
        "rain": 0,
        "snow": 0
    },
    {
        "name": "Lejac",
        "latitude": 54.06,
        "longitude": -124.8439,
        "date": 1742970809,
        "weather": "Clouds",
        "weather_description": "overcast clouds",
        "temp": 1.13,
        "visibility": 4834,
        "clouds": 100,
        "rain": 0,
        "snow": 0
    },
    {
        "name": "Porto Rico",
        "latitude": 49.2831,
        "longitude": -117.2175,
        "date": 1742970872,
        "weather": "Clouds",
        "weather_description": "overcast clouds",
        "temp": 4.65,
        "visibility": 28,
        "clouds": 100,
        "rain": 0,
        "snow": 0
    },
    {
        "name": "Fruitvale",
        "latitude": 49.1147,
        "longitude": -117.5428,
        "date": 1742970809,
        "weather": "Clouds",
        "weather_description": "overcast clouds",
        "temp": 6.52,
        "visibility": 71,
        "clouds": 100,
        "rain": 0,
        "snow": 0
    },
    {
        "name": "Kimberley",
        "latitude": 49.6847,
        "longitude": -115.9817,
        "date": 1742970873,
        "weather": "Clouds",
        "weather_description": "broken clouds",
        "temp": 4.57,
        "visibility": 10000,
        "clouds": 75,
        "rain": 0,
        "snow": 0
    },
    {
        "name": "Invermere",
        "latitude": 50.5056,
        "longitude": -116.0306,
        "date": 1742970873,
        "weather": "Clouds",
        "weather_description": "overcast clouds",
        "temp": 5.15,
        "visibility": 10000,
        "clouds": 100,
        "rain": 0,
        "snow": 0
    },
    {
        "name": "Lions Bay",
        "latitude": 49.4583,
        "longitude": -123.2353,
        "date": 1742970873,
        "weather": "Clouds",
        "weather_description": "overcast clouds",
        "temp": 10.48,
        "visibility": 4293,
        "clouds": 98,
        "rain": 0,
        "snow": 0
    },
    {
        "name": "Marysville",
        "latitude": 49.5997,
        "longitude": -115.8675,
        "date": 1742970873,
        "weather": "Clouds",
        "weather_description": "broken clouds",
        "temp": 6.62,
        "visibility": 10000,
        "clouds": 75,
        "rain": 0,
        "snow": 0
    },
    {
        "name": "Merritt",
        "latitude": 49.9331,
        "longitude": -120.6178,
        "date": 1742970809,
        "weather": "Clouds",
        "weather_description": "overcast clouds",
        "temp": 2.87,
        "visibility": 22,
        "clouds": 100,
        "rain": 0,
        "snow": 0
    },
    {
        "name": "Molson",
        "latitude": 49.0331,
        "longitude": -119.1511,
        "date": 1742970873,
        "weather": "Clouds",
        "weather_description": "overcast clouds",
        "temp": 4.94,
        "visibility": {},
        "clouds": 100,
        "rain": 0,
        "snow": 0
    },
    {
        "name": "Okanagan",
        "latitude": 50.5011,
        "longitude": -119.5581,
        "date": 1742970873,
        "weather": "Clouds",
        "weather_description": "overcast clouds",
        "temp": 5.92,
        "visibility": {},
        "clouds": 100,
        "rain": 0,
        "snow": 0
    },
    {
        "name": "Stoner",
        "latitude": 53.5292,
        "longitude": -122.6889,
        "date": 1742970873,
        "weather": "Clouds",
        "weather_description": "overcast clouds",
        "temp": 2.85,
        "visibility": {},
        "clouds": 100,
        "rain": 0,
        "snow": 0
    },
    {
        "name": "Terrace",
        "latitude": 54.5164,
        "longitude": -128.5347,
        "date": 1742970810,
        "weather": "Clear",
        "weather_description": "clear sky",
        "temp": 4.88,
        "visibility": 10000,
        "clouds": 0,
        "rain": 0,
        "snow": 0
    },
    {
        "name": "Mackenzie",
        "latitude": 55.3242,
        "longitude": -123.0928,
        "date": 1742970810,
        "weather": "Clear",
        "weather_description": "clear sky",
        "temp": -0.63,
        "visibility": 10000,
        "clouds": 0,
        "rain": 0,
        "snow": 0
    },
    {
        "name": "Radium Hot Springs",
        "latitude": 50.6197,
        "longitude": -116.0758,
        "date": 1742970873,
        "weather": "Clouds",
        "weather_description": "overcast clouds",
        "temp": 5.98,
        "visibility": 10000,
        "clouds": 100,
        "rain": 0,
        "snow": 0
    },
    {
        "name": "Groundbirch",
        "latitude": 55.7831,
        "longitude": -120.9181,
        "date": 1742970873,
        "weather": "Clouds",
        "weather_description": "few clouds",
        "temp": -1.7,
        "visibility": 10000,
        "clouds": 19,
        "rain": 0,
        "snow": 0
    },
    {
        "name": "Windermere",
        "latitude": 50.3358,
        "longitude": -115.8567,
        "date": 1742970874,
        "weather": "Clouds",
        "weather_description": "overcast clouds",
        "temp": 6.05,
        "visibility": 9941,
        "clouds": 100,
        "rain": 0,
        "snow": 0
    },
    {
        "name": "Salmo",
        "latitude": 49.1906,
        "longitude": -117.3356,
        "date": 1742970874,
        "weather": "Clouds",
        "weather_description": "overcast clouds",
        "temp": 6.39,
        "visibility": 35,
        "clouds": 100,
        "rain": 0,
        "snow": 0
    },
    {
        "name": "Cumberland",
        "latitude": 49.5833,
        "longitude": -124.8864,
        "date": 1742970874,
        "weather": "Clouds",
        "weather_description": "overcast clouds",
        "temp": 10.25,
        "visibility": 10000,
        "clouds": 100,
        "rain": 0,
        "snow": 0
    },
    {
        "name": "Mission",
        "latitude": 49.1795,
        "longitude": -122.1698,
        "date": 1742970874,
        "weather": "Clouds",
        "weather_description": "scattered clouds",
        "temp": 6.04,
        "visibility": 10000,
        "clouds": 35,
        "rain": 0,
        "snow": 0
    },
    {
        "name": "Popkum",
        "latitude": 49.1997,
        "longitude": -121.7344,
        "date": 1742970810,
        "weather": "Clouds",
        "weather_description": "few clouds",
        "temp": 11.61,
        "visibility": 10000,
        "clouds": 20,
        "rain": 0,
        "snow": 0
    }
]